{
  "ubicaciones": [
    {
      "nombre": "Puerto Rio Haina",
      "latitud": 18.4222,
      "longitud": -70.0333
    },
    {
      "nombre": "Puerto San Soucí",
      "latitud": 18.4705,
      "longitud": -69.8686
    },
    {
      "nombre": "Caucedo DPW",
      "latitud": 18.4258,
      "longitud": -69.6242
    },
    {
      "nombre": "Puerto La Romana",
      "latitud": 18.4239,
      "longitud": -68.9712
    },
    {
      "nombre": "ZF San Pedro",
      "latitud": 18.4626,
      "longitud": -69.2965
    },
    {
      "nombre": "ZF las americas",
      "latitud": 18.4486,
      "longitud": -69.6575
    },
    {
      "nombre": "ZF la Romana",
      "latitud": 18.4384,
      "longitud": -68.9610
    },
    {
      "nombre": "ZF Industrial de Santiago",
      "latitud": 19.4705,
      "longitud": -70.6989
    },
    {
      "nombre": "ZF Parque Industrial del Cibao",
      "latitud": 19.4637,
      "longitud": -70.6703
    },
    {
      "nombre": "Aereo Puerto Internacional De Las Américas",
      "latitud": 18.4295,
      "longitud": -69.6689
    },
    {
      "nombre": "Producto del tabaco(Santiago)",
      "latitud": 19.4519,
      "longitud": -70.6985
    }
  ]
}
